[
	{
		"abbr": "AP",
		"name": "Andhra Pradesh",
		"capital": "Hyderabad/Amravati",
		"lat": "32.361538",
		"long": "-86.279118"
	},
	{
		"abbr": "AR",
		"name": "Arunachal Pradesh",
		"capital": "Itanagar",
		"lat": "58.301935",
		"long": "-134.419740"
	},
	{
		"abbr": "AS",
		"name": "Assam",
		"capital": "Dispur",
		"lat": "33.448457",
		"long": "-112.073844"
	},
	{
		"abbr": "BR",
		"name": "Bihar",
		"capital": "Patna",
		"lat": "34.736009",
		"long": "-92.331122"
	},
	{
		"abbr": "CG",
		"name": "Chhattisgarh",
		"capital": "Naya Raipur",
		"lat": "38.555605",
		"long": "-121.468926"
	},
	{
		"abbr": "GA",
		"name": "Goa",
		"capital": "Panaji",
		"lat": "39.7391667",
		"long": "-104.984167"
	},
	{
		"abbr": "GJ",
		"name": "Gujarat",
		"capital": "Gandhinagar",
		"lat": "41.767",
		"long": "-72.677"
	},
	{
		"abbr": "HR",
		"name": "Haryana",
		"capital": "Chandigarh",
		"lat": "39.161921",
		"long": "-75.526755"
	},
	{
		"abbr": "HP",
		"name": "Himachal Pradesh",
		"capital": "Shimla",
		"lat": "30.4518",
		"long": "-84.27277"
	},
	{
		"abbr": "JH",
		"name": "Jharkhand",
		"capital": "Ranchi",
		"lat": "33.76",
		"long": "-84.39"
	},
	{
		"abbr": "KA",
		"name": "Karnatake",
		"capital": "Banglore",
		"lat": "21.30895",
		"long": "-157.826182"
	},
	{
		"abbr": "KL",
		"name": "Kerala",
		"capital": "Thiruvananthapuram",
		"lat": "43.613739",
		"long": "-116.237651"
	},
	{
		"abbr": "MP",
		"name": "Madhya Pradesh",
		"capital": "Bhopal",
		"lat": "39.783250",
		"long": "-89.650373"
	},
	{
		"abbr": "MH",
		"name": "Maharashtra",
		"capital": "Mumbai",
		"lat": "39.790942",
		"long": "-86.147685"
	},
	{
		"abbr": "MN",
		"name": "Manipur",
		"capital": "Imphal",
		"lat": "41.590939",
		"long": "-93.620866"
	},
	{
		"abbr": "ML",
		"name": "Meghalaya",
		"capital": "Shillong",
		"lat": "39.04",
		"long": "-95.69"
	},
	{
		"abbr": "MZ",
		"name": "Mizaoram",
		"capital": "Aizawl",
		"lat": "38.197274",
		"long": "-84.86311"
	},
	{
		"abbr": "NL",
		"name": "Nagaland",
		"capital": "Kohima",
		"lat": "30.45809",
		"long": "-91.140229"
	},
	{
		"abbr": "OD",
		"name": "Odisha",
		"capital": "Bhubaneswar",
		"lat": "44.323535",
		"long": "-69.765261"
	},
	{
		"abbr": "PB",
		"name": "Punjab",
		"capital": "Chandigarh",
		"lat": "38.972945",
		"long": "-76.501157"
	},
	{
		"abbr": "RJ",
		"name": "Rajasthan",
		"capital": "Jaipur",
		"lat": "42.2352",
		"long": "-71.0275"
	},
	{
		"abbr": "SK",
		"name": "Sikkim",
		"capital": "Gangtok",
		"lat": "42.7335",
		"long": "-84.5467"
	},
	{
		"abbr": "TN",
		"name": "Tamil Nadu",
		"capital": "Chennai",
		"lat": "44.95",
		"long": "-93.094"
	},
	{
		"abbr": "TS",
		"name": "Telangana",
		"capital": "Hyderabad",
		"lat": "32.320",
		"long": "-90.207"
	},
	{
		"abbr": "TR",
		"name": "Tripura",
		"capital": "Agartala",
		"lat": "38.572954",
		"long": "-92.189283"
	},
	{
		"abbr": "UP",
		"name": "Uttar Pradesh",
		"capital": "Lucknow",
		"lat": "46.595805",
		"long": "-112.027031"
	},
	{
		"abbr": "UK",
		"name": "Uttarakhand",
		"capital": "Dehradun",
		"lat": "40.809868",
		"long": "-96.675345"
	},
	{
		"abbr": "WB",
		"name": "West Bengal",
		"capital": "Kolkata",
		"lat": "39.160949",
		"long": "-119.753877"
	},
	{
		"abbr": "AN",
		"name": "Andaman and Nicobar Islands",
		"capital": "Port Blair",
		"lat": "43.220093",
		"long": "-71.549127"
	},
	{
		"abbr": "DD",
		"name": "Daman and Diu",
		"capital": "Daman",
		"lat": "40.221741",
		"long": "-74.756138"
	},
	{
		"abbr": "DL",
		"name": "Delhi",
		"capital": "New Delhi",
		"lat": "35.667231",
		"long": "-105.964575"
	},
	{
		"abbr": "JK",
		"name": "Jammu and Kashmir",
		"capital": "Srinagar/Jammu",
		"lat": "42.659829",
		"long": "-73.781339"
	},
	{
		"abbr": "LA",
		"name": "Ladakh",
		"capital": "Leh",
		"lat": "35.771",
		"long": "-78.638"
	},
	{
		"abbr": "LD",
		"name": "Lakshadweep",
		"capital": "Kavaratti",
		"lat": "48.813343",
		"long": "-100.779004"
	},
	{
		"abbr": "PY",
		"name": "Puducherry",
		"capital": "Pondicherry",
		"lat": "39.962245",
		"long": "-83.000647"
	},
	{
		"abbr": "OK",
		"name": "Oklahoma",
		"capital": "Oklahoma City",
		"lat": "35.482309",
		"long": "-97.534994"
	},
	{
		"abbr": "OR",
		"name": "Oregon",
		"capital": "Salem",
		"lat": "44.931109",
		"long": "-123.029159"
	},
	{
		"abbr": "PA",
		"name": "Pennsylvania",
		"capital": "Harrisburg",
		"lat": "40.269789",
		"long": "-76.875613"
	},
	{
		"abbr": "RI",
		"name": "Rhode Island",
		"capital": "Providence",
		"lat": "41.82355",
		"long": "-71.422132"
	},
	{
		"abbr": "SC",
		"name": "South Carolina",
		"capital": "Columbia",
		"lat": "34.000",
		"long": "-81.035"
	},
	{
		"abbr": "SD",
		"name": "South Dakota",
		"capital": "Pierre",
		"lat": "44.367966",
		"long": "-100.336378"
	},
	{
		"abbr": "TN",
		"name": "Tennessee",
		"capital": "Nashville",
		"lat": "36.165",
		"long": "-86.784"
	},
	{
		"abbr": "TX",
		"name": "Texas",
		"capital": "Austin",
		"lat": "30.266667",
		"long": "-97.75"
	},
	{
		"abbr": "UT",
		"name": "Utah",
		"capital": "Salt Lake City",
		"lat": "40.7547",
		"long": "-111.892622"
	},
	{
		"abbr": "VT",
		"name": "Vermont",
		"capital": "Montpelier",
		"lat": "44.26639",
		"long": "-72.57194"
	},
	{
		"abbr": "VA",
		"name": "Virginia",
		"capital": "Richmond",
		"lat": "37.54",
		"long": "-77.46"
	},
	{
		"abbr": "WA",
		"name": "Washington",
		"capital": "Olympia",
		"lat": "47.042418",
		"long": "-122.893077"
	},
	{
		"abbr": "WV",
		"name": "West Virginia",
		"capital": "Charleston",
		"lat": "38.349497",
		"long": "-81.633294"
	},
	{
		"abbr": "WI",
		"name": "Wisconsin",
		"capital": "Madison",
		"lat": "43.074722",
		"long": "-89.384444"
	},
	{
		"abbr": "WY",
		"name": "Wyoming",
		"capital": "Cheyenne",
		"lat": "41.145548",
		"long": "-104.802042"
	}
]